{
  "searchType": "circle",
  "center": {
    "lat": 34.813495,
    "lng": 114.35707
  },
  "radius": 500,
  "query": "景点",
  "type": "",
  "total": 45,
  "fetched": 45,
  "results": [
    {
      "name": "开封市龙亭公园",
      "address": "河南省开封市龙亭区宋都御街与龙亭西路交叉口北侧",
      "location": {
        "lat": 34.813495,
        "lng": 114.35707
      },
      "type": "",
      "rating": 0,
      "uid": "2718e99c40d03f262eb96d7b",
      "telephone": "(0371)22198151,15981997816",
      "detail_url": "",
      "price": "",
      "business_hours": "",
      "tag": ""
    },
    {
      "name": "天波杨府",
      "address": "开封市龙亭区龙亭北路14号",
      "location": {
        "lat": 34.817001,
        "lng": 114.353869
      },
      "type": "",
      "rating": 0,
      "uid": "33fbfa839700b9c10bf5ebc2",
      "telephone": "(0371)22890559",
      "detail_url": "",
      "price": "",
      "business_hours": "",
      "tag": ""
    },
    {
      "name": "断桥",
      "address": "开封市龙亭区区宋都御街北端龙亭景区内",
      "location": {
        "lat": 34.812794,
        "lng": 114.355715
      },
      "type": "",
      "rating": 0,
      "uid": "5124ef9451b2f69988fc0689",
      "telephone": "",
      "detail_url": "",
      "price": "",
      "business_hours": "",
      "tag": ""
    },
    {
      "name": "朝门",
      "address": "开封市龙亭区区宋都御街北端龙亭景区内",
      "location": {
        "lat": 34.81417,
        "lng": 114.358932
      },
      "type": "",
      "rating": 0,
      "uid": "2667e5df0918c0d203ff2d1e",
      "telephone": "",
      "detail_url": "",
      "price": "",
      "business_hours": "",
      "tag": ""
    },
    {
      "name": "龙亭大殿",
      "address": "河南省开封市龙亭区宋都御街北口龙亭公园",
      "location": {
        "lat": 34.81506,
        "lng": 114.35894
      },
      "type": "",
      "rating": 0,
      "uid": "a91e7aeaf028bfca0a5cb302",
      "telephone": "",
      "detail_url": "",
      "price": "",
      "business_hours": "",
      "tag": ""
    },
    {
      "name": "九龙洞",
      "address": "开封市龙亭区宋都御街龙亭景区",
      "location": {
        "lat": 34.816163,
        "lng": 114.356728
      },
      "type": "",
      "rating": 0,
      "uid": "97903438073738024107c102",
      "telephone": "",
      "detail_url": "",
      "price": "",
      "business_hours": "",
      "tag": ""
    },
    {
      "name": "北宋皇宫模型沙盘",
      "address": "开封市龙亭区区宋都御街北端龙亭景区内",
      "location": {
        "lat": 34.814177,
        "lng": 114.358945
      },
      "type": "",
      "rating": 0,
      "uid": "9b8bd53aa57655d2f7eafccd",
      "telephone": "",
      "detail_url": "",
      "price": "",
      "business_hours": "",
      "tag": ""
    },
    {
      "name": "玉带桥",
      "address": "开封市龙亭区区龙亭北路15号中国翰园内",
      "location": {
        "lat": 34.81105,
        "lng": 114.358527
      },
      "type": "",
      "rating": 0,
      "uid": "abbeef2294edfac903ff2deb",
      "telephone": "(0371)22891558",
      "detail_url": "",
      "price": "",
      "business_hours": "",
      "tag": ""
    },
    {
      "name": "东湖岛",
      "address": "开封市龙亭区龙亭东路开封市龙亭公园",
      "location": {
        "lat": 34.811499,
        "lng": 114.360088
      },
      "type": "",
      "rating": 0,
      "uid": "d735a3578658c1b8b020a8d8",
      "telephone": "",
      "detail_url": "",
      "price": "",
      "business_hours": "",
      "tag": ""
    },
    {
      "name": "嵩呼",
      "address": "开封市龙亭区区宋都御街北端龙亭景区内",
      "location": {
        "lat": 34.812301,
        "lng": 114.358714
      },
      "type": "",
      "rating": 0,
      "uid": "3e08b85a285451382911d166",
      "telephone": "",
      "detail_url": "",
      "price": "",
      "business_hours": "",
      "tag": ""
    },
    {
      "name": "月季园",
      "address": "河南省开封市龙亭区午朝门街道龙亭东路宋都御街北端龙亭景区内龙亭公园",
      "location": {
        "lat": 34.815793,
        "lng": 114.357911
      },
      "type": "",
      "rating": 0,
      "uid": "83363c7148610813b34c491d",
      "telephone": "",
      "detail_url": "",
      "price": "",
      "business_hours": "",
      "tag": ""
    },
    {
      "name": "午门",
      "address": "开封市龙亭区区宋都御街北端龙亭景区内",
      "location": {
        "lat": 34.80986,
        "lng": 114.358543
      },
      "type": "",
      "rating": 0,
      "uid": "647218dcec7d8e11f4eafc43",
      "telephone": "",
      "detail_url": "",
      "price": "",
      "business_hours": "",
      "tag": ""
    },
    {
      "name": "宋宫遗石",
      "address": "开封市龙亭区区宋都御街北端龙亭景区内",
      "location": {
        "lat": 34.815048,
        "lng": 114.358792
      },
      "type": "",
      "rating": 0,
      "uid": "196fa724683298ad01ec01ce",
      "telephone": "",
      "detail_url": "",
      "price": "",
      "business_hours": "",
      "tag": ""
    },
    {
      "name": "龙亭公园御道",
      "address": "开封市龙亭区区宋都御街北端龙亭景区内",
      "location": {
        "lat": 34.813287,
        "lng": 114.358734
      },
      "type": "",
      "rating": 0,
      "uid": "e40081fecc8faf6194ec8476",
      "telephone": "",
      "detail_url": "",
      "price": "",
      "business_hours": "",
      "tag": ""
    },
    {
      "name": "貔貅馆",
      "address": "开封市龙亭区区宋都御街北端龙亭景区内",
      "location": {
        "lat": 34.814726,
        "lng": 114.358247
      },
      "type": "",
      "rating": 0,
      "uid": "d8ba606e6ffaa6f6d0ff2313",
      "telephone": "",
      "detail_url": "",
      "price": "",
      "business_hours": "",
      "tag": ""
    },
    {
      "name": "开封市龙亭公园-游览车站",
      "address": "开封市龙亭区区宋都御街北端龙亭景区内",
      "location": {
        "lat": 34.814936,
        "lng": 114.358487
      },
      "type": "",
      "rating": 0,
      "uid": "98361eaf85215a3cf32d83c4",
      "telephone": "",
      "detail_url": "",
      "price": "",
      "business_hours": "",
      "tag": ""
    },
    {
      "name": "皇城北墙遗址",
      "address": "开封市龙亭区区宋都御街北端龙亭景区内",
      "location": {
        "lat": 34.815522,
        "lng": 114.358738
      },
      "type": "",
      "rating": 0,
      "uid": "d7ddf3b7e3429af90bf5ebdd",
      "telephone": "",
      "detail_url": "",
      "price": "",
      "business_hours": "",
      "tag": ""
    },
    {
      "name": "皇城西墙遗址",
      "address": "开封市龙亭区区宋都御街北端龙亭景区内",
      "location": {
        "lat": 34.814357,
        "lng": 114.355883
      },
      "type": "",
      "rating": 0,
      "uid": "3318535723bc2a8d4afc8d03",
      "telephone": "",
      "detail_url": "",
      "price": "",
      "business_hours": "",
      "tag": ""
    },
    {
      "name": "植物造型园",
      "address": "河南省开封市龙亭区区宋都御街北端龙亭景区内",
      "location": {
        "lat": 34.816376,
        "lng": 114.359017
      },
      "type": "",
      "rating": 0,
      "uid": "975cbb676c96fcbceee4a521",
      "telephone": "",
      "detail_url": "",
      "price": "",
      "business_hours": "",
      "tag": ""
    },
    {
      "name": "菊廊",
      "address": "开封市龙亭区宋都御街龙亭景区",
      "location": {
        "lat": 34.811492,
        "lng": 114.358706
      },
      "type": "",
      "rating": 0,
      "uid": "48420969a4c287f925d2bbf9",
      "telephone": "",
      "detail_url": "",
      "price": "",
      "business_hours": "",
      "tag": ""
    },
    {
      "name": "长廊水榭",
      "address": "开封市龙亭区宋都御街与龙亭南路交叉口北100米龙亭景区内",
      "location": {
        "lat": 34.815561,
        "lng": 114.357028
      },
      "type": "",
      "rating": 0,
      "uid": "17f0432beb61e3fe15a190cd",
      "telephone": "",
      "detail_url": "",
      "price": "",
      "business_hours": "",
      "tag": ""
    },
    {
      "name": "皇家邮驿",
      "address": "开封市龙亭区区宋都御街北端龙亭景区内",
      "location": {
        "lat": 34.814649,
        "lng": 114.359411
      },
      "type": "",
      "rating": 0,
      "uid": "6d9e9a242a4ca5192cb17e79",
      "telephone": "",
      "detail_url": "",
      "price": "",
      "business_hours": "",
      "tag": ""
    },
    {
      "name": "湖心亭",
      "address": "开封市龙亭区宋都御街龙亭景区",
      "location": {
        "lat": 34.811529,
        "lng": 114.357751
      },
      "type": "",
      "rating": 0,
      "uid": "be55e928120aaed33062121f",
      "telephone": "",
      "detail_url": "",
      "price": "",
      "business_hours": "",
      "tag": ""
    },
    {
      "name": "杨家西湖游览船",
      "address": "开封市龙亭区龙亭公园杨家湖",
      "location": {
        "lat": 34.815412,
        "lng": 114.355789
      },
      "type": "",
      "rating": 0,
      "uid": "2df343914f60c02cb020a809",
      "telephone": "",
      "detail_url": "",
      "price": "",
      "business_hours": "",
      "tag": ""
    },
    {
      "name": "四季同春园",
      "address": "开封市龙亭区区宋都御街北端龙亭景区内",
      "location": {
        "lat": 34.816378,
        "lng": 114.35984
      },
      "type": "",
      "rating": 0,
      "uid": "d8bc1344f1037fd21ef74d19",
      "telephone": "",
      "detail_url": "",
      "price": "",
      "business_hours": "",
      "tag": ""
    },
    {
      "name": "五岳真形碑",
      "address": "开封市龙亭区宋都御街龙亭景区",
      "location": {
        "lat": 34.815866,
        "lng": 114.359028
      },
      "type": "",
      "rating": 0,
      "uid": "5d1b25e6e689f70bb34c4974",
      "telephone": "",
      "detail_url": "",
      "price": "",
      "business_hours": "",
      "tag": ""
    },
    {
      "name": "白虎桥",
      "address": "区龙亭北路14号天波杨府内",
      "location": {
        "lat": 34.816333,
        "lng": 114.353965
      },
      "type": "",
      "rating": 0,
      "uid": "ecf660fabccbb267a80dd81d",
      "telephone": "",
      "detail_url": "",
      "price": "",
      "business_hours": "",
      "tag": ""
    },
    {
      "name": "缠枝莲婴戏纹石缸",
      "address": "开封市龙亭区区宋都御街北端龙亭景区内",
      "location": {
        "lat": 34.814415,
        "lng": 114.358865
      },
      "type": "",
      "rating": 0,
      "uid": "a5e59481b2d606354251c0bb",
      "telephone": "",
      "detail_url": "",
      "price": "",
      "business_hours": "",
      "tag": ""
    },
    {
      "name": "下马石",
      "address": "区龙亭北路14号天波杨府内",
      "location": {
        "lat": 34.816671,
        "lng": 114.353184
      },
      "type": "",
      "rating": 0,
      "uid": "20d528e753f90ede2a11d1b3",
      "telephone": "",
      "detail_url": "",
      "price": "",
      "business_hours": "",
      "tag": ""
    },
    {
      "name": "景云轩",
      "address": "开封市龙亭区龙亭公园内西厢房(近龙亭大殿)",
      "location": {
        "lat": 34.814802,
        "lng": 114.358415
      },
      "type": "",
      "rating": 0,
      "uid": "1a388c0c817242006f3e1bcc",
      "telephone": "",
      "detail_url": "",
      "price": "",
      "business_hours": "",
      "tag": ""
    },
    {
      "name": "龙亭区见义勇为主题公园",
      "address": "开封市龙亭区龙亭西路世纪豪苑东1门北侧约70米",
      "location": {
        "lat": 34.809507,
        "lng": 114.35683
      },
      "type": "",
      "rating": 0,
      "uid": "e945706baa514f3c2cb17e45",
      "telephone": "",
      "detail_url": "",
      "price": "",
      "business_hours": "",
      "tag": ""
    },
    {
      "name": "龙亭区学习强国主题公园",
      "address": "河南省开封市龙亭区龙亭西路(半亩园东园东侧)",
      "location": {
        "lat": 34.811155,
        "lng": 114.354855
      },
      "type": "",
      "rating": 0,
      "uid": "96658e71f3bac00da11de9a2",
      "telephone": "",
      "detail_url": "",
      "price": "",
      "business_hours": "",
      "tag": ""
    },
    {
      "name": "探古苑",
      "address": "开封市龙亭区区宋都御街北端龙亭景区内",
      "location": {
        "lat": 34.811493,
        "lng": 114.359477
      },
      "type": "",
      "rating": 0,
      "uid": "992b7bf7e62f84a4a80dd81c",
      "telephone": "",
      "detail_url": "",
      "price": "",
      "business_hours": "",
      "tag": ""
    },
    {
      "name": "艺佳苑",
      "address": "开封市龙亭区区宋都御街北端龙亭景区内",
      "location": {
        "lat": 34.814852,
        "lng": 114.35985
      },
      "type": "",
      "rating": 0,
      "uid": "59c32727cfdfddc9c4f0259d",
      "telephone": "",
      "detail_url": "",
      "price": "",
      "business_hours": "",
      "tag": ""
    },
    {
      "name": "铁泉海眼",
      "address": "开封市龙亭区区宋都御街北端龙亭景区内",
      "location": {
        "lat": 34.815037,
        "lng": 114.359418
      },
      "type": "",
      "rating": 0,
      "uid": "48cdb4f432c7a9ba28b97c81",
      "telephone": "",
      "detail_url": "",
      "price": "",
      "business_hours": "",
      "tag": ""
    },
    {
      "name": "大庆殿遗址",
      "address": "开封市龙亭区区宋都御街北端龙亭景区内",
      "location": {
        "lat": 34.811404,
        "lng": 114.358716
      },
      "type": "",
      "rating": 0,
      "uid": "27583bef58db9c980aa8d4bf",
      "telephone": "",
      "detail_url": "",
      "price": "",
      "business_hours": "",
      "tag": ""
    },
    {
      "name": "照壁",
      "address": "开封市龙亭区区宋都御街北端龙亭景区内",
      "location": {
        "lat": 34.814439,
        "lng": 114.358886
      },
      "type": "",
      "rating": 0,
      "uid": "cb88f11c8accb81a373a7198",
      "telephone": "",
      "detail_url": "",
      "price": "",
      "business_hours": "",
      "tag": ""
    },
    {
      "name": "龙亭公园办公区",
      "address": "区宋都御街北端龙亭景区内",
      "location": {
        "lat": 34.814321,
        "lng": 114.358173
      },
      "type": "",
      "rating": 0,
      "uid": "1c4070fd8ee39d77eb56fa72",
      "telephone": "",
      "detail_url": "",
      "price": "",
      "business_hours": "",
      "tag": ""
    },
    {
      "name": "开封市龙亭公园-讲解处",
      "address": "开封市龙亭区区宋都御街北端龙亭景区内",
      "location": {
        "lat": 34.809882,
        "lng": 114.358385
      },
      "type": "",
      "rating": 0,
      "uid": "691c28d5a816f5e043d63eb5",
      "telephone": "",
      "detail_url": "",
      "price": "",
      "business_hours": "",
      "tag": ""
    },
    {
      "name": "延福宫遗址",
      "address": "开封市龙亭区龙亭北路龙亭景区北门西南侧约30米",
      "location": {
        "lat": 34.817174,
        "lng": 114.358817
      },
      "type": "",
      "rating": 0,
      "uid": "d0d731452e0822a42cb96d03",
      "telephone": "",
      "detail_url": "",
      "price": "",
      "business_hours": "",
      "tag": ""
    },
    {
      "name": "宋代遗石",
      "address": "开封市龙亭区区宋都御街北端龙亭景区内",
      "location": {
        "lat": 34.816175,
        "lng": 114.358082
      },
      "type": "",
      "rating": 0,
      "uid": "a710ef3795acb8472811d1c3",
      "telephone": "",
      "detail_url": "",
      "price": "",
      "business_hours": "",
      "tag": ""
    },
    {
      "name": "忠烈千秋雕塑",
      "address": "区龙亭北路14号天波杨府内",
      "location": {
        "lat": 34.815714,
        "lng": 114.354035
      },
      "type": "",
      "rating": 0,
      "uid": "15c3c466796ea14c04026fa0",
      "telephone": "",
      "detail_url": "",
      "price": "",
      "business_hours": "",
      "tag": ""
    },
    {
      "name": "乾隆御书嘉禾诗碑",
      "address": "开封市龙亭区宋都御街北端龙亭景区内",
      "location": {
        "lat": 34.814419,
        "lng": 114.358946
      },
      "type": "",
      "rating": 0,
      "uid": "c6735295eca2f57fc61b7540",
      "telephone": "",
      "detail_url": "",
      "price": "",
      "business_hours": "",
      "tag": ""
    },
    {
      "name": "凝芳苑",
      "address": "开封市龙亭区区宋都御街北端龙亭景区内",
      "location": {
        "lat": 34.814904,
        "lng": 114.358309
      },
      "type": "",
      "rating": 0,
      "uid": "2b91ae175de7708c5a3ac8da",
      "telephone": "",
      "detail_url": "",
      "price": "",
      "business_hours": "",
      "tag": ""
    },
    {
      "name": "芳林苑",
      "address": "开封市龙亭区区宋都御街北端龙亭景区内",
      "location": {
        "lat": 34.816433,
        "lng": 114.358148
      },
      "type": "",
      "rating": 0,
      "uid": "4bf9f70d57d878e852e5c584",
      "telephone": "",
      "detail_url": "",
      "price": "",
      "business_hours": "",
      "tag": ""
    }
  ]
}